{
  "title": "Trip to Tokyo",
  "notes": "Generated 3-day itinerary for Tokyo",
  "locations": [
    {
      "name": "アーティゾン美術館",
      "desc": "",
      "lat": 35.678749,
      "lng": 139.7721285
    },
    {
      "name": "東京都写真美術館",
      "desc": "",
      "lat": 35.641543,
      "lng": 139.7133962
    },
    {
      "name": "Japan Traditional Crafts Centre",
      "desc": "",
      "lat": 35.7288374,
      "lng": 139.7093019
    },
    {
      "name": "観世能楽堂",
      "desc": "",
      "lat": 35.6620432,
      "lng": 139.6935718
    },
    {
      "name": "スターバックス",
      "desc": "",
      "lat": 35.684236,
      "lng": 139.7390476
    },
    {
      "name": "cafe",
      "desc": "",
      "lat": 35.6815144,
      "lng": 139.7438874
    },
    {
      "name": "蔵前水の館",
      "desc": "",
      "lat": 35.7016508,
      "lng": 139.7913627
    },
    {
      "name": "デニーズ",
      "desc": "駐車場あり;景色良好",
      "lat": 35.6613882,
      "lng": 139.7761893
    },
    {
      "name": "けいすけラーメン",
      "desc": "",
      "lat": 35.6269249,
      "lng": 139.7379208
    },
    {
      "name": "つばめグリル",
      "desc": "",
      "lat": 35.6276453,
      "lng": 139.7373857
    },
    {
      "name": "珈琲館",
      "desc": "",
      "lat": 35.7482853,
      "lng": 139.7196284
    },
    {
      "name": "スターバックス",
      "desc": "",
      "lat": 35.7018499,
      "lng": 139.7424458
    },
    {
      "name": "ドトールコーヒーショップ",
      "desc": "",
      "lat": 35.6812934,
      "lng": 139.6981229
    },
    {
      "name": "粥 「喜喜」",
      "desc": "",
      "lat": 35.6726214,
      "lng": 139.7124736
    },
    {
      "name": "自家焙煎珈琲豆 「ルンバミーア」",
      "desc": "",
      "lat": 35.6749577,
      "lng": 139.7124612
    },
    {
      "name": "ヘンドリックス・カリー・バー",
      "desc": "",
      "lat": 35.6748355,
      "lng": 139.7124552
    },
    {
      "name": "えさき",
      "desc": "",
      "lat": 35.6716996,
      "lng": 139.7131681
    },
    {
      "name": "フォルクス 世田谷代田店",
      "desc": "",
      "lat": 35.6523308,
      "lng": 139.6605397
    }
  ]
}
